[
  {
    "adcode": 100000,
    "lng": 116.3683244,
    "lat": 39.915085,
    "name": "中华人民共和国",
    "en": "PRC",
    "short": "中国",
    "capital": null,
    "filename": "china"
  },
  {
    "adcode": 110000,
    "lng": 116.405285,
    "lat": 39.904989,
    "name": "北京市",
    "en": "Beijing",
    "short": "京",
    "capital": null,
    "filename": "beijing"
  },
  {
    "adcode": 120000,
    "lng": 117.190182,
    "lat": 39.125596,
    "name": "天津市",
    "en": "Tianjin",
    "short": "津",
    "capital": null,
    "filename": "tianjin"
  },
  {
    "adcode": 310000,
    "lng": 121.472644,
    "lat": 31.231706,
    "name": "上海市",
    "en": "Shanghai",
    "short": "沪",
    "capital": null,
    "filename": "shanghai"
  },
  {
    "adcode": 500000,
    "lng": 106.504962,
    "lat": 29.533155,
    "name": "重庆市",
    "en": "Chongqing",
    "short": "沪",
    "capital": null,
    "filename": "chongqing"
  },
  {
    "adcode": 130000,
    "lng": 114.502461,
    "lat": 38.045474,
    "name": "河北省",
    "en": "Hebei",
    "short": "冀",
    "capital": "石家庄市",
    "filename": "hebei"
  },
  {
    "adcode": 140000,
    "lng": 112.549248,
    "lat": 37.857014,
    "name": "山西省",
    "en": "Shanxi",
    "short": "晋",
    "capital": "太原市",
    "filename": "shanxi"
  },
  {
    "adcode": 210000,
    "lng": 123.429096,
    "lat": 41.796767,
    "name": "辽宁省",
    "en": "Liaoning",
    "short": "辽",
    "capital": "沈阳市",
    "filename": "liaoning"
  },
  {
    "adcode": 220000,
    "lng": 125.3245,
    "lat": 43.886841,
    "name": "吉林省",
    "en": "Jilin",
    "short": "吉",
    "capital": "长春市",
    "filename": "jilin"
  },
  {
    "adcode": 230000,
    "lng": 126.642464,
    "lat": 45.756967,
    "name": "黑龙江省",
    "en": "Heilongjiang",
    "short": "黑",
    "capital": "哈尔滨市",
    "filename": "heilongjiang"
  },
  {
    "adcode": 320000,
    "lng": 118.767413,
    "lat": 32.041544,
    "name": "江苏省",
    "en": "Jiangsu",
    "short": "苏",
    "capital": "南京市",
    "filename": "jiangsu"
  },
  {
    "adcode": 330000,
    "lng": 120.153576,
    "lat": 30.287459,
    "name": "浙江省",
    "en": "Zhejiang",
    "short": "浙",
    "capital": "杭州市",
    "filename": "zhejiang"
  },
  {
    "adcode": 340000,
    "lng": 117.283042,
    "lat": 31.86119,
    "name": "安徽省",
    "en": "Anhui",
    "short": "皖",
    "capital": "合肥市",
    "filename": "anhui"
  },
  {
    "adcode": 350000,
    "lng": 119.306239,
    "lat": 26.075302,
    "name": "福建省",
    "en": "Fujian",
    "short": "闽",
    "capital": "福州市",
    "filename": "fujian"
  },
  {
    "adcode": 360000,
    "lng": 115.892151,
    "lat": 28.676493,
    "name": "江西省",
    "en": "Jiangxi",
    "short": "赣",
    "capital": "南昌市",
    "filename": "jiangxi"
  },
  {
    "adcode": 370000,
    "lng": 117.000923,
    "lat": 36.675807,
    "name": "山东省",
    "en": "Shandong",
    "short": "鲁",
    "capital": "济南市",
    "filename": "shandong"
  },
  {
    "adcode": 410000,
    "lng": 113.665412,
    "lat": 34.757975,
    "name": "河南省",
    "en": "Henan",
    "short": "豫",
    "capital": "郑州市",
    "filename": "henan"
  },
  {
    "adcode": 420000,
    "lng": 114.298572,
    "lat": 30.584355,
    "name": "湖北省",
    "en": "Hubei",
    "short": "鄂",
    "capital": "武汉市",
    "filename": "hubei"
  },
  {
    "adcode": 430000,
    "lng": 112.982279,
    "lat": 28.19409,
    "name": "湖南省",
    "en": "Hunan",
    "short": "湘",
    "capital": "长沙市",
    "filename": "hunan"
  },
  {
    "adcode": 440000,
    "lng": 113.280637,
    "lat": 23.125178,
    "name": "广东省",
    "en": "Guangdong",
    "short": "粤",
    "capital": "广州市",
    "filename": "guangdong"
  },
  {
    "adcode": 460000,
    "lng": 110.33119,
    "lat": 20.031971,
    "name": "海南省",
    "en": "Hainan",
    "short": "琼",
    "capital": "海口市",
    "filename": "hainan"
  },
  {
    "adcode": 510000,
    "lng": 104.065735,
    "lat": 30.659462,
    "name": "四川省",
    "en": "Sichuan",
    "short": "川/蜀",
    "capital": "成都市",
    "filename": "sichuan"
  },
  {
    "adcode": 520000,
    "lng": 106.713478,
    "lat": 26.578343,
    "name": "贵州省",
    "en": "Guizhou",
    "short": "黔/贵",
    "capital": "贵阳市",
    "filename": "guizhou"
  },
  {
    "adcode": 530000,
    "lng": 102.712251,
    "lat": 25.040609,
    "name": "云南省",
    "en": "Yunnan",
    "short": "滇/云",
    "capital": "昆明市",
    "filename": "yunnan"
  },
  {
    "adcode": 610000,
    "lng": 108.948024,
    "lat": 34.263161,
    "name": "陕西省",
    "en": "Shaanxi",
    "short": "陕/秦",
    "capital": "西安市",
    "filename": "shaanxi"
  },
  {
    "adcode": 620000,
    "lng": 103.823557,
    "lat": 36.058039,
    "name": "甘肃省",
    "en": "Gansu",
    "short": "甘/陇",
    "capital": "兰州市",
    "filename": "gansu"
  },
  {
    "adcode": 630000,
    "lng": 101.778916,
    "lat": 36.623178,
    "name": "青海省",
    "en": "Qinghai",
    "short": "青",
    "capital": "西宁市",
    "filename": "qinghai"
  },
  {
    "adcode": 710000,
    "lng": 121.509062,
    "lat": 25.044332,
    "name": "台湾省",
    "en": "Taiwan",
    "short": "台",
    "capital": "西宁市",
    "filename": "taiwan"
  },
  {
    "adcode": 150000,
    "lng": 111.670801,
    "lat": 40.818311,
    "name": "内蒙古自治区",
    "en": "Inner Mongolia Autonomous Region",
    "short": "蒙",
    "capital": "呼和浩特市",
    "filename": "neimenggu"
  },
  {
    "adcode": 450000,
    "lng": 108.320004,
    "lat": 22.82402,
    "name": "广西壮族自治区",
    "en": "Guangxi Zhuang Autonomous Region",
    "short": "桂",
    "capital": "南宁市",
    "filename": "guangxi"
  },
  {
    "adcode": 540000,
    "lng": 91.132212,
    "lat": 29.660361,
    "name": "西藏自治区",
    "en": "Tibet Autonomous Region",
    "short": "藏",
    "capital": "拉萨",
    "filename": "xizang"
  },
  {
    "adcode": 640000,
    "lng": 106.278179,
    "lat": 38.46637,
    "name": "宁夏回族自治区",
    "en": "Ningxia Hui Autonomous Region",
    "short": "宁",
    "capital": "银川市",
    "filename": "ningxia"
  },
  {
    "adcode": 650000,
    "lng": 87.617733,
    "lat": 43.792818,
    "name": "新疆维吾尔自治区",
    "en": "Xinjiang Uyghur Autonomous Region",
    "short": "新",
    "capital": "乌鲁木齐",
    "filename": "xinjiang"
  },
  {
    "adcode": 810000,
    "lng": 114.173355,
    "lat": 22.320048,
    "name": "香港特别行政区",
    "en": "Hong Kong Special Administrative Region",
    "short": "港",
    "capital": null,
    "filename": "hongkong"
  },
  {
    "adcode": 820000,
    "lng": 113.54909,
    "lat": 22.198951,
    "name": "澳门特别行政区",
    "en": "Macau Special Administrative Region",
    "short": "澳",
    "capital": null,
    "filename": "aomen"
  }
]
